{"type":"FeatureCollection","features":[{"type":"Feature","properties":{"name":"Lolo Peds Restaurant","kind":"food","kind_label":"Restaurant","osm_id":"node/1157254285","barangay_slug":"gawana","barangay_name":"Gawana"},"geometry":{"type":"Point","coordinates":[121.100329,17.0414632]}},{"type":"Feature","properties":{"name":"Hannjo Cafe","kind":"food","kind_label":"Cafe","osm_id":"node/5764539553","barangay_slug":"gawana","barangay_name":"Gawana"},"geometry":{"type":"Point","coordinates":[121.0997953,17.0413785]}},{"type":"Feature","properties":{"name":"Barlig, FS7","kind":"tourism","kind_label":"Attraction","osm_id":"node/11722122169","barangay_slug":"lias-kanluran","barangay_name":"Lias Kanluran"},"geometry":{"type":"Point","coordinates":[121.1371096,17.0706524]}},{"type":"Feature","properties":{"name":"Barlig Municipal Hall","kind":"govt","kind_label":"Town hall","osm_id":"node/13912017171","barangay_slug":"gawana","barangay_name":"Gawana"},"geometry":{"type":"Point","coordinates":[121.0994565,17.0414978]}},{"type":"Feature","properties":{"name":"Barlig National High School","kind":"school","kind_label":"School","osm_id":"way/644520456","barangay_slug":"gawana","barangay_name":"Gawana"},"geometry":{"type":"Point","coordinates":[121.099671,17.0418264]}},{"type":"Feature","properties":{"name":"Lias Silangan Barangay Hall","kind":"govt","kind_label":"Town hall","osm_id":"way/644520846","barangay_slug":"lias-silangan","barangay_name":"Lias Silangan"},"geometry":{"type":"Point","coordinates":[121.1439959,17.0839148]}},{"type":"Feature","properties":{"name":"Eastern Bontoc National Agricultural Vocational High School","kind":"school","kind_label":"School","osm_id":"way/771556556","barangay_slug":"lingoy-upper","barangay_name":"Lingoy (Upper)"},"geometry":{"type":"Point","coordinates":[121.0841873,17.0576061]}},{"type":"Feature","properties":{"name":"Lunas Primary School","kind":"school","kind_label":"School","osm_id":"way/851422178","barangay_slug":"lunas","barangay_name":"Lunas"},"geometry":{"type":"Point","coordinates":[121.2059006,17.0606707]}},{"type":"Feature","properties":{"name":"Ogo-og Elementary School","kind":"school","kind_label":"School","osm_id":"way/851847913","barangay_slug":"ogo-og","barangay_name":"Ogo-og"},"geometry":{"type":"Point","coordinates":[121.1920205,17.0436402]}},{"type":"Feature","properties":{"name":"Latang Primary School","kind":"school","kind_label":"School","osm_id":"way/851852224","barangay_slug":"latang","barangay_name":"Latang"},"geometry":{"type":"Point","coordinates":[121.0953065,17.0380289]}},{"type":"Feature","properties":{"name":"Lingoy Primary School","kind":"school","kind_label":"School","osm_id":"way/852317887","barangay_slug":"lingoy-upper","barangay_name":"Lingoy (Upper)"},"geometry":{"type":"Point","coordinates":[121.0890907,17.09176]}},{"type":"Feature","properties":{"name":"Kadaclan Elementary School","kind":"school","kind_label":"School","osm_id":"way/852610656","barangay_slug":"chupac","barangay_name":"Chupac"},"geometry":{"type":"Point","coordinates":[121.1979133,17.055405]}},{"type":"Feature","properties":{"name":"Kadaclan National High School","kind":"school","kind_label":"School","osm_id":"way/852610657","barangay_slug":"chupac","barangay_name":"Chupac"},"geometry":{"type":"Point","coordinates":[121.1982932,17.0560031]}},{"type":"Feature","properties":{"name":"Kaleo Elementary School","kind":"school","kind_label":"School","osm_id":"way/852612427","barangay_slug":"kaleo","barangay_name":"Kaleo"},"geometry":{"type":"Point","coordinates":[121.1966185,17.0512855]}},{"type":"Feature","properties":{"name":"Lias Elementary School","kind":"school","kind_label":"School","osm_id":"way/852614655","barangay_slug":"lias-kanluran","barangay_name":"Lias Kanluran"},"geometry":{"type":"Point","coordinates":[121.1437124,17.0840917]}},{"type":"Feature","properties":{"name":"Lias National High School","kind":"school","kind_label":"School","osm_id":"way/852614659","barangay_slug":"lias-kanluran","barangay_name":"Lias Kanluran"},"geometry":{"type":"Point","coordinates":[121.1432395,17.0841661]}},{"type":"Feature","properties":{"name":"Barlig Central School","kind":"school","kind_label":"School","osm_id":"way/852618825","barangay_slug":"gawana","barangay_name":"Gawana"},"geometry":{"type":"Point","coordinates":[121.1008592,17.040841]}},{"type":"Feature","properties":{"name":"Lingoy-Chatol Elementary School","kind":"school","kind_label":"School","osm_id":"way/1009068933","barangay_slug":"lingoy-upper","barangay_name":"Lingoy (Upper)"},"geometry":{"type":"Point","coordinates":[121.0832928,17.0576058]}},{"type":"Feature","properties":{"name":"Mog-ao Primary School","kind":"school","kind_label":"School","osm_id":"way/1009068936","barangay_slug":"lunas","barangay_name":"Lunas"},"geometry":{"type":"Point","coordinates":[121.2331219,17.053012]}},{"type":"Feature","properties":{"name":"Lias Kanluran Barangay Hall","kind":"govt","kind_label":"Town hall","osm_id":"way/1526385594","barangay_slug":"lias-kanluran","barangay_name":"Lias Kanluran"},"geometry":{"type":"Point","coordinates":[121.1434242,17.0838113]}}]}
