{"type":"FeatureCollection","features":[{"type":"Feature","properties":{"osm_id":"n198491047","place":"town","name":"Bauko","rank":4,"population":31470},"geometry":{"type":"Point","coordinates":[120.8583041,16.9816175]}},{"type":"Feature","properties":{"osm_id":"n359344561","place":"village","name":"Bila","rank":3,"population":1052},"geometry":{"type":"Point","coordinates":[120.8787638,17.0059098]}},{"type":"Feature","properties":{"osm_id":"n364223781","place":"village","name":"Mabaay","rank":3,"population":1385},"geometry":{"type":"Point","coordinates":[120.887568,16.915974]}},{"type":"Feature","properties":{"osm_id":"n3858065555","place":"village","name":"Sinto","rank":3,"population":955},"geometry":{"type":"Point","coordinates":[120.8624767,16.8504255]}},{"type":"Feature","properties":{"osm_id":"n3858082959","place":"village","name":"Mount Data;Leseb","rank":3,"population":685},"geometry":{"type":"Point","coordinates":[120.8730838,16.8634499]}},{"type":"Feature","properties":{"osm_id":"n4491643301","place":"village","name":"Bagnen Oriente","rank":3,"population":728},"geometry":{"type":"Point","coordinates":[120.8871208,17.0302515]}},{"type":"Feature","properties":{"osm_id":"n7695567315","place":"village","name":"Bagnen Proper","rank":3,"population":738},"geometry":{"type":"Point","coordinates":[120.8822097,17.0357112]}},{"type":"Feature","properties":{"osm_id":"n7695760062","place":"village","name":"Otucan Norte","rank":3,"population":463},"geometry":{"type":"Point","coordinates":[120.8842997,17.0029158]}},{"type":"Feature","properties":{"osm_id":"n7695760202","place":"village","name":"Otucan Sur","rank":3,"population":1316},"geometry":{"type":"Point","coordinates":[120.8832576,16.9978271]}},{"type":"Feature","properties":{"osm_id":"n7697874526","place":"village","name":"Lagawa","rank":3,"population":1140},"geometry":{"type":"Point","coordinates":[120.8832529,16.9654005]}},{"type":"Feature","properties":{"osm_id":"n7699986744","place":"village","name":"Banao","rank":3,"population":1509},"geometry":{"type":"Point","coordinates":[120.8761847,16.971407]}},{"type":"Feature","properties":{"osm_id":"n7700056346","place":"village","name":"Guinzadan Sur","rank":3,"population":1579},"geometry":{"type":"Point","coordinates":[120.8664431,16.9602576]}},{"type":"Feature","properties":{"osm_id":"n7700062170","place":"village","name":"Guinzadan Norte","rank":3,"population":996},"geometry":{"type":"Point","coordinates":[120.8681992,16.9649039]}},{"type":"Feature","properties":{"osm_id":"n7700107984","place":"village","name":"Mayag","rank":3,"population":962},"geometry":{"type":"Point","coordinates":[120.8434888,16.9707249]}},{"type":"Feature","properties":{"osm_id":"n7702649582","place":"village","name":"Sadsadan","rank":3,"population":3022},"geometry":{"type":"Point","coordinates":[120.8761541,16.894782]}},{"type":"Feature","properties":{"osm_id":"n8767301380","place":"village","name":"Leseb","rank":3,"population":1104},"geometry":{"type":"Point","coordinates":[120.8761316,16.920815]}},{"type":"Feature","properties":{"osm_id":"n8774955393","place":"village","name":"Poblacion","rank":3,"population":1719},"geometry":{"type":"Point","coordinates":[120.8659606,16.9902375]}},{"type":"Feature","properties":{"osm_id":"n8774955874","place":"village","name":"Tapapan","rank":3,"population":2465},"geometry":{"type":"Point","coordinates":[120.8674185,16.9464895]}},{"type":"Feature","properties":{"osm_id":"n13913798282","place":"village","name":"Guinzadan Central","rank":3,"population":1324},"geometry":{"type":"Point","coordinates":[120.8654767,16.963664]}},{"type":"Feature","properties":{"osm_id":"n13913798283","place":"village","name":"Monamon Norte","rank":3,"population":3096},"geometry":{"type":"Point","coordinates":[120.8940758,16.8982951]}},{"type":"Feature","properties":{"osm_id":"n13913798284","place":"village","name":"Leseb","rank":3,"population":3921},"geometry":{"type":"Point","coordinates":[120.874343,16.8669563]}},{"type":"Feature","properties":{"osm_id":"n2499767442","place":"neighbourhood","name":"Gutang","rank":1,"population":null},"geometry":{"type":"Point","coordinates":[120.8814284,17.0507586]}},{"type":"Feature","properties":{"osm_id":"n3858065554","place":"neighbourhood","name":"Amkaweng Village","rank":1,"population":null},"geometry":{"type":"Point","coordinates":[120.8680459,16.8543223]}},{"type":"Feature","properties":{"osm_id":"n3858074236","place":"neighbourhood","name":"Lukib","rank":1,"population":null},"geometry":{"type":"Point","coordinates":[120.8775264,16.8820545]}},{"type":"Feature","properties":{"osm_id":"n3858074858","place":"neighbourhood","name":"Pooten's Village","rank":1,"population":null},"geometry":{"type":"Point","coordinates":[120.868792,16.8568876]}},{"type":"Feature","properties":{"osm_id":"n7695614246","place":"hamlet","name":"Balintaugan","rank":1,"population":153},"geometry":{"type":"Point","coordinates":[120.8811191,17.0507766]}},{"type":"Feature","properties":{"osm_id":"n7699959004","place":"neighbourhood","name":"Coputan","rank":1,"population":null},"geometry":{"type":"Point","coordinates":[120.8908859,16.9522348]}},{"type":"Feature","properties":{"osm_id":"n7702752411","place":"neighbourhood","name":"Boga","rank":1,"population":null},"geometry":{"type":"Point","coordinates":[120.8748865,16.8664914]}},{"type":"Feature","properties":{"osm_id":"n7702752412","place":"neighbourhood","name":"Pactil","rank":1,"population":null},"geometry":{"type":"Point","coordinates":[120.8750206,16.8717251]}},{"type":"Feature","properties":{"osm_id":"n7702880578","place":"neighbourhood","name":"Sengyew","rank":1,"population":null},"geometry":{"type":"Point","coordinates":[120.8870745,16.8640246]}},{"type":"Feature","properties":{"osm_id":"n7703115147","place":"hamlet","name":"Asbiagan","rank":1,"population":null},"geometry":{"type":"Point","coordinates":[120.8838451,16.8522629]}},{"type":"Feature","properties":{"osm_id":"n8258051610","place":"hamlet","name":"Bebe","rank":1,"population":null},"geometry":{"type":"Point","coordinates":[120.8935198,16.8516776]}},{"type":"Feature","properties":{"osm_id":"n8258051726","place":"hamlet","name":"Monamon Proper","rank":1,"population":null},"geometry":{"type":"Point","coordinates":[120.8740604,16.83819]}},{"type":"Feature","properties":{"osm_id":"n8767300739","place":"hamlet","name":"Bansa","rank":1,"population":null},"geometry":{"type":"Point","coordinates":[120.8930568,16.8996499]}},{"type":"Feature","properties":{"osm_id":"n9310334333","place":"hamlet","name":"Soysoyoc","rank":1,"population":null},"geometry":{"type":"Point","coordinates":[120.8714278,16.9375317]}},{"type":"Feature","properties":{"osm_id":"n9310336428","place":"hamlet","name":"Cotcot","rank":1,"population":null},"geometry":{"type":"Point","coordinates":[120.8618349,16.9935349]}},{"type":"Feature","properties":{"osm_id":"n9310336810","place":"hamlet","name":"Tipunan","rank":1,"population":null},"geometry":{"type":"Point","coordinates":[120.8962208,16.8713965]}},{"type":"Feature","properties":{"osm_id":"n9310337140","place":"hamlet","name":"Tamog-o","rank":1,"population":null},"geometry":{"type":"Point","coordinates":[120.8941193,16.8794355]}},{"type":"Feature","properties":{"osm_id":"n9310340258","place":"hamlet","name":"Letang","rank":1,"population":null},"geometry":{"type":"Point","coordinates":[120.8753747,16.9449379]}},{"type":"Feature","properties":{"osm_id":"n9310341739","place":"hamlet","name":"Caotit","rank":1,"population":null},"geometry":{"type":"Point","coordinates":[120.8445132,16.9617096]}},{"type":"Feature","properties":{"osm_id":"n10250881606","place":"hamlet","name":"Gandew","rank":1,"population":null},"geometry":{"type":"Point","coordinates":[120.8492607,16.9813041]}},{"type":"Feature","properties":{"osm_id":"n10250924191","place":"hamlet","name":"Kaguimongan","rank":1,"population":null},"geometry":{"type":"Point","coordinates":[120.8574395,16.9815682]}},{"type":"Feature","properties":{"osm_id":"n10250979372","place":"hamlet","name":"Tetep-an","rank":1,"population":null},"geometry":{"type":"Point","coordinates":[120.855073,16.9833101]}},{"type":"Feature","properties":{"osm_id":"n10251033458","place":"hamlet","name":"Domog","rank":1,"population":null},"geometry":{"type":"Point","coordinates":[120.861631,16.9869527]}}]}
